[{"id":"adelaide","name":"Adelaide","fullName":"Adelaide Street Circuit","previousNames":null,"type":"STREET","direction":"CLOCKWISE","placeName":"Adelaide","countryId":"australia","latitude":-34.927222,"longitude":138.617222,"length":3.780,"turns":16,"totalRacesHeld":11},{"id":"aida","name":"Aida","fullName":"Okayama International Circuit","previousNames":["TI Circuit Aida"],"type":"RACE","direction":"CLOCKWISE","placeName":"Aida","countryId":"japan","latitude":34.915,"longitude":134.221111,"length":3.703,"turns":13,"totalRacesHeld":2},{"id":"ain-diab","name":"Ain-Diab","fullName":"Ain-Diab Circuit","previousNames":null,"type":"ROAD","direction":"CLOCKWISE","placeName":"Casablanca","countryId":"morocco","latitude":33.578611,"longitude":-7.6875,"length":7.618,"turns":18,"totalRacesHeld":1},{"id":"aintree","name":"Aintree","fullName":"Aintree Motor Racing Circuit","previousNames":null,"type":"ROAD","direction":"CLOCKWISE","placeName":"Aintree","countryId":"united-kingdom","latitude":53.476944,"longitude":-2.940556,"length":4.828,"turns":8,"totalRacesHeld":5},{"id":"anderstorp","name":"Anderstorp Raceway","fullName":"Anderstorp Raceway","previousNames":["Scandinavian Raceway"],"type":"RACE","direction":"CLOCKWISE","placeName":"Anderstorp","countryId":"sweden","latitude":57.264167,"longitude":13.601389,"length":4.031,"turns":8,"totalRacesHeld":6},{"id":"austin","name":"Americas","fullName":"Circuit of the Americas","previousNames":null,"type":"RACE","direction":"ANTI_CLOCKWISE","placeName":"Austin","countryId":"united-states-of-america","latitude":30.132778,"longitude":-97.641111,"length":5.513,"turns":20,"totalRacesHeld":13},{"id":"avus","name":"AVUS","fullName":"AVUS","previousNames":null,"type":"ROAD","direction":"ANTI_CLOCKWISE","placeName":"Berlin","countryId":"germany","latitude":52.480556,"longitude":13.251389,"length":8.300,"turns":4,"totalRacesHeld":1},{"id":"bahrain","name":"Bahrain","fullName":"Bahrain International Circuit","previousNames":null,"type":"RACE","direction":"CLOCKWISE","placeName":"Sakhir","countryId":"bahrain","latitude":26.0325,"longitude":50.510556,"length":5.412,"turns":15,"totalRacesHeld":22},{"id":"baku","name":"Baku","fullName":"Baku City Circuit","previousNames":null,"type":"STREET","direction":"ANTI_CLOCKWISE","placeName":"Baku","countryId":"azerbaijan","latitude":40.3725,"longitude":49.853333,"length":6.003,"turns":20,"totalRacesHeld":9},{"id":"brands-hatch","name":"Brands Hatch","fullName":"Brands Hatch","previousNames":null,"type":"RACE","direction":"CLOCKWISE","placeName":"Fawkham","countryId":"united-kingdom","latitude":51.356667,"longitude":0.2625,"length":4.207,"turns":9,"totalRacesHeld":14},{"id":"bremgarten","name":"Bremgarten","fullName":"Circuit Bremgarten","previousNames":null,"type":"ROAD","direction":"CLOCKWISE","placeName":"Bern","countryId":"switzerland","latitude":46.95,"longitude":7.410833,"length":7.280,"turns":13,"totalRacesHeld":5},{"id":"buddh","name":"Buddh","fullName":"Buddh International Circuit","previousNames":null,"type":"RACE","direction":"CLOCKWISE","placeName":"Greater Noida","countryId":"india","latitude":28.350556,"longitude":77.535,"length":5.125,"turns":16,"totalRacesHeld":3},{"id":"buenos-aires","name":"Juan y Oscar Gálvez","fullName":"Autódromo Juan y Oscar Gálvez","previousNames":["Autódromo 17 de Octubre","Autódromo Municipal Ciudad de Buenos Aires","Autódromo Municipal del Parque Almirante Brown de la Ciudad de Buenos Aires","Autódromo Oscar Alfredo Gálvez"],"type":"RACE","direction":"CLOCKWISE","placeName":"Buenos Aires","countryId":"argentina","latitude":-34.694272,"longitude":-58.459347,"length":4.259,"turns":19,"totalRacesHeld":20},{"id":"bugatti","name":"Bugatti","fullName":"Bugatti Circuit","previousNames":null,"type":"RACE","direction":"CLOCKWISE","placeName":"Le Mans","countryId":"france","latitude":47.937694,"longitude":0.225611,"length":4.185,"turns":14,"totalRacesHeld":1},{"id":"caesars-palace","name":"Caesars Palace","fullName":"Caesars Palace","previousNames":null,"type":"STREET","direction":"ANTI_CLOCKWISE","placeName":"Las Vegas","countryId":"united-states-of-america","latitude":36.116944,"longitude":-115.175,"length":3.650,"turns":14,"totalRacesHeld":2},{"id":"catalunya","name":"Catalunya","fullName":"Circuit de Barcelona-Catalunya","previousNames":["Circuit de Catalunya"],"type":"RACE","direction":"CLOCKWISE","placeName":"Montmeló","countryId":"spain","latitude":41.57,"longitude":2.261111,"length":4.657,"turns":14,"totalRacesHeld":35},{"id":"clermont-ferrand","name":"Charade","fullName":"Charade Circuit","previousNames":null,"type":"ROAD","direction":"CLOCKWISE","placeName":"Clermont-Ferrand","countryId":"france","latitude":45.747222,"longitude":3.038889,"length":8.055,"turns":48,"totalRacesHeld":4},{"id":"dallas","name":"Fair Park","fullName":"Fair Park","previousNames":null,"type":"STREET","direction":"ANTI_CLOCKWISE","placeName":"Dallas","countryId":"united-states-of-america","latitude":32.781944,"longitude":-96.765556,"length":3.901,"turns":23,"totalRacesHeld":1},{"id":"detroit","name":"Detroit","fullName":"Detroit Street Circuit","previousNames":null,"type":"STREET","direction":"ANTI_CLOCKWISE","placeName":"Detroit","countryId":"united-states-of-america","latitude":42.32975,"longitude":-83.040111,"length":4.023,"turns":22,"totalRacesHeld":7},{"id":"dijon","name":"Dijon-Prenois","fullName":"Dijon-Prenois","previousNames":null,"type":"RACE","direction":"CLOCKWISE","placeName":"Dijon","countryId":"france","latitude":47.3625,"longitude":4.899167,"length":3.801,"turns":12,"totalRacesHeld":6},{"id":"donington","name":"Donington Park","fullName":"Donington Park","previousNames":null,"type":"RACE","direction":"CLOCKWISE","placeName":"Leicestershire","countryId":"united-kingdom","latitude":52.829806,"longitude":-1.379556,"length":4.023,"turns":12,"totalRacesHeld":1},{"id":"east-london","name":"Prince George","fullName":"Prince George Circuit","previousNames":null,"type":"RACE","direction":"CLOCKWISE","placeName":"East London","countryId":"south-africa","latitude":-33.048611,"longitude":27.873611,"length":3.920,"turns":9,"totalRacesHeld":3},{"id":"estoril","name":"Estoril","fullName":"Autódromo do Estoril","previousNames":null,"type":"RACE","direction":"CLOCKWISE","placeName":"Estoril","countryId":"portugal","latitude":38.750833,"longitude":-9.394167,"length":4.360,"turns":13,"totalRacesHeld":13},{"id":"fuji","name":"Fuji","fullName":"Fuji Speedway","previousNames":null,"type":"RACE","direction":"CLOCKWISE","placeName":"Oyama","countryId":"japan","latitude":35.371667,"longitude":138.926667,"length":4.563,"turns":16,"totalRacesHeld":4},{"id":"hockenheimring","name":"Hockenheimring","fullName":"Hockenheimring","previousNames":null,"type":"RACE","direction":"CLOCKWISE","placeName":"Hockenheim","countryId":"germany","latitude":49.327778,"longitude":8.565833,"length":4.574,"turns":17,"totalRacesHeld":37},{"id":"hungaroring","name":"Hungaroring","fullName":"Hungaroring","previousNames":null,"type":"RACE","direction":"CLOCKWISE","placeName":"Budapest","countryId":"hungary","latitude":47.582222,"longitude":19.251111,"length":4.381,"turns":14,"totalRacesHeld":40},{"id":"imola","name":"Enzo e Dino Ferrari","fullName":"Autodromo Internazionale Enzo e Dino Ferrari","previousNames":["Autodromo Dino Ferrari"],"type":"RACE","direction":"ANTI_CLOCKWISE","placeName":"Imola","countryId":"italy","latitude":44.341111,"longitude":11.713333,"length":4.909,"turns":19,"totalRacesHeld":32},{"id":"indianapolis","name":"Indianapolis","fullName":"Indianapolis Motor Speedway","previousNames":null,"type":"RACE","direction":"CLOCKWISE","placeName":"Indianapolis","countryId":"united-states-of-america","latitude":39.798333,"longitude":-86.232778,"length":4.192,"turns":13,"totalRacesHeld":19},{"id":"interlagos","name":"José Carlos Pace","fullName":"Autódromo José Carlos Pace","previousNames":["Interlagos"],"type":"RACE","direction":"ANTI_CLOCKWISE","placeName":"São Paulo","countryId":"brazil","latitude":-23.701111,"longitude":-46.697222,"length":4.309,"turns":15,"totalRacesHeld":42},{"id":"istanbul","name":"Istanbul Park","fullName":"Istanbul Park","previousNames":["Istanbul Otodrom"],"type":"RACE","direction":"ANTI_CLOCKWISE","placeName":"Istanbul","countryId":"turkey","latitude":40.951667,"longitude":29.405,"length":5.338,"turns":14,"totalRacesHeld":9},{"id":"jacarepagua","name":"Nelson Piquet","fullName":"Autódromo Internacional Nelson Piquet","previousNames":["Jacarepaguá"],"type":"RACE","direction":"ANTI_CLOCKWISE","placeName":"Rio de Janeiro","countryId":"brazil","latitude":-22.975556,"longitude":-43.395,"length":5.031,"turns":11,"totalRacesHeld":10},{"id":"jarama","name":"Jarama","fullName":"Circuito del Jarama","previousNames":["Circuito Permanente del Jarama"],"type":"RACE","direction":"CLOCKWISE","placeName":"Madrid","countryId":"spain","latitude":40.617111,"longitude":-3.585583,"length":3.314,"turns":14,"totalRacesHeld":9},{"id":"jeddah","name":"Jeddah","fullName":"Jeddah Corniche Circuit","previousNames":null,"type":"STREET","direction":"ANTI_CLOCKWISE","placeName":"Jeddah","countryId":"saudi-arabia","latitude":21.543333,"longitude":39.172778,"length":6.174,"turns":27,"totalRacesHeld":5},{"id":"jerez","name":"Jerez","fullName":"Circuito de Jerez","previousNames":["Circuito Permanente de Jerez"],"type":"RACE","direction":"CLOCKWISE","placeName":"Jerez de la Frontera","countryId":"spain","latitude":36.708333,"longitude":-6.034167,"length":4.428,"turns":15,"totalRacesHeld":7},{"id":"kyalami","name":"Kyalami","fullName":"Kyalami Racing Circuit","previousNames":null,"type":"RACE","direction":"ANTI_CLOCKWISE","placeName":"Midrand","countryId":"south-africa","latitude":-25.998611,"longitude":28.068889,"length":4.261,"turns":13,"totalRacesHeld":20},{"id":"las-vegas","name":"Las Vegas","fullName":"Las Vegas Street Circuit","previousNames":null,"type":"STREET","direction":"ANTI_CLOCKWISE","placeName":"Las Vegas","countryId":"united-states-of-america","latitude":36.175,"longitude":-115.136389,"length":6.201,"turns":17,"totalRacesHeld":3},{"id":"long-beach","name":"Long Beach","fullName":"Long Beach","previousNames":null,"type":"STREET","direction":"CLOCKWISE","placeName":"Long Beach","countryId":"united-states-of-america","latitude":33.766389,"longitude":-118.192778,"length":3.275,"turns":18,"totalRacesHeld":8},{"id":"lusail","name":"Lusail","fullName":"Lusail International Circuit","previousNames":null,"type":"RACE","direction":"CLOCKWISE","placeName":"Lusail","countryId":"qatar","latitude":25.49,"longitude":51.454167,"length":5.419,"turns":16,"totalRacesHeld":4},{"id":"madring","name":"Madring","fullName":"Circuito de Madring","previousNames":null,"type":"STREET","direction":"CLOCKWISE","placeName":"Madrid","countryId":"spain","latitude":40.465278,"longitude":-3.615278,"length":5.474,"turns":22,"totalRacesHeld":0},{"id":"magny-cours","name":"Magny-Cours","fullName":"Circuit de Nevers Magny-Cours","previousNames":null,"type":"RACE","direction":"CLOCKWISE","placeName":"Nevers","countryId":"france","latitude":46.863242,"longitude":3.164228,"length":4.411,"turns":17,"totalRacesHeld":18},{"id":"marina-bay","name":"Marina Bay","fullName":"Marina Bay Street Circuit","previousNames":null,"type":"STREET","direction":"ANTI_CLOCKWISE","placeName":"Singapore","countryId":"singapore","latitude":1.291531,"longitude":103.86385,"length":4.927,"turns":19,"totalRacesHeld":16},{"id":"melbourne","name":"Melbourne","fullName":"Melbourne Grand Prix Circuit","previousNames":["Albert Park Circuit"],"type":"STREET","direction":"CLOCKWISE","placeName":"Melbourne","countryId":"australia","latitude":-37.849722,"longitude":144.968333,"length":5.278,"turns":14,"totalRacesHeld":28},{"id":"mexico-city","name":"Hermanos Rodríguez","fullName":"Autódromo Hermanos Rodríguez","previousNames":["Autódromo Ricardo Rodríguez"],"type":"RACE","direction":"CLOCKWISE","placeName":"Mexico City","countryId":"mexico","latitude":19.404197,"longitude":-99.088747,"length":4.304,"turns":17,"totalRacesHeld":25},{"id":"miami","name":"Miami","fullName":"Miami International Autodrome","previousNames":null,"type":"STREET","direction":"ANTI_CLOCKWISE","placeName":"Miami Gardens","countryId":"united-states-of-america","latitude":25.958056,"longitude":-80.238889,"length":5.412,"turns":19,"totalRacesHeld":4},{"id":"monaco","name":"Monaco","fullName":"Circuit de Monaco","previousNames":null,"type":"STREET","direction":"CLOCKWISE","placeName":"Monte Carlo","countryId":"monaco","latitude":43.734722,"longitude":7.420556,"length":3.337,"turns":19,"totalRacesHeld":71},{"id":"monsanto","name":"Monsanto","fullName":"Circuito de Monsanto","previousNames":null,"type":"STREET","direction":"CLOCKWISE","placeName":"Lisbon","countryId":"portugal","latitude":38.719722,"longitude":-9.203056,"length":5.440,"turns":9,"totalRacesHeld":1},{"id":"mont-tremblant","name":"Mont-Tremblant","fullName":"Circuit Mont-Tremblant","previousNames":null,"type":"RACE","direction":"CLOCKWISE","placeName":"Mont-Tremblant","countryId":"canada","latitude":46.187707,"longitude":-74.609936,"length":4.265,"turns":15,"totalRacesHeld":2},{"id":"montjuic","name":"Montjuïc","fullName":"Circuito de Montjuïc","previousNames":null,"type":"STREET","direction":"ANTI_CLOCKWISE","placeName":"Barcelona","countryId":"spain","latitude":41.366389,"longitude":2.151667,"length":3.790,"turns":12,"totalRacesHeld":4},{"id":"montreal","name":"Gilles Villeneuve","fullName":"Circuit Gilles Villeneuve","previousNames":["Île Notre-Dame Circuit"],"type":"STREET","direction":"CLOCKWISE","placeName":"Montreal","countryId":"canada","latitude":45.500578,"longitude":-73.522461,"length":4.361,"turns":13,"totalRacesHeld":44},{"id":"monza","name":"Monza","fullName":"Autodromo Nazionale Monza","previousNames":null,"type":"RACE","direction":"CLOCKWISE","placeName":"Monza","countryId":"italy","latitude":45.620556,"longitude":9.289444,"length":5.793,"turns":11,"totalRacesHeld":75},{"id":"mosport","name":"Mosport","fullName":"Canadian Tire Motorsport Park","previousNames":["Mosport Park","Mosport International Raceway"],"type":"RACE","direction":"CLOCKWISE","placeName":"Bowmanville","countryId":"canada","latitude":44.05,"longitude":-78.677778,"length":3.957,"turns":10,"totalRacesHeld":8},{"id":"mugello","name":"Mugello","fullName":"Autodromo Internazionale del Mugello","previousNames":null,"type":"RACE","direction":"CLOCKWISE","placeName":"Scarperia e San Piero","countryId":"italy","latitude":43.9975,"longitude":11.371944,"length":5.245,"turns":15,"totalRacesHeld":1},{"id":"nivelles","name":"Nivelles-Baulers","fullName":"Nivelles-Baulers","previousNames":null,"type":"RACE","direction":"CLOCKWISE","placeName":"Nivelles","countryId":"belgium","latitude":50.621111,"longitude":4.326944,"length":3.724,"turns":7,"totalRacesHeld":2},{"id":"nurburgring","name":"Nürburgring","fullName":"Nürburgring","previousNames":null,"type":"RACE","direction":"CLOCKWISE","placeName":"Nürburg","countryId":"germany","latitude":50.335556,"longitude":6.9475,"length":5.148,"turns":15,"totalRacesHeld":41},{"id":"paul-ricard","name":"Paul Ricard","fullName":"Circuit Paul Ricard","previousNames":null,"type":"RACE","direction":"CLOCKWISE","placeName":"Le Castellet","countryId":"france","latitude":43.250556,"longitude":5.791667,"length":5.842,"turns":15,"totalRacesHeld":18},{"id":"pedralbes","name":"Pedralbes","fullName":"Pedralbes Circuit","previousNames":null,"type":"STREET","direction":"CLOCKWISE","placeName":"Barcelona","countryId":"spain","latitude":41.390278,"longitude":2.116667,"length":6.316,"turns":6,"totalRacesHeld":2},{"id":"pescara","name":"Pescara","fullName":"Pescara Circuit","previousNames":null,"type":"ROAD","direction":"CLOCKWISE","placeName":"Pescara","countryId":"italy","latitude":42.475,"longitude":14.150833,"length":25.579,"turns":24,"totalRacesHeld":1},{"id":"phoenix","name":"Phoenix","fullName":"Phoenix Street Circuit","previousNames":null,"type":"STREET","direction":"ANTI_CLOCKWISE","placeName":"Phoenix","countryId":"united-states-of-america","latitude":33.447917,"longitude":-112.074583,"length":3.721,"turns":15,"totalRacesHeld":3},{"id":"portimao","name":"Portimão","fullName":"Algarve International Circuit","previousNames":null,"type":"RACE","direction":"CLOCKWISE","placeName":"Portimão","countryId":"portugal","latitude":37.221944,"longitude":-8.629444,"length":4.653,"turns":15,"totalRacesHeld":2},{"id":"porto","name":"Boavista","fullName":"Circuito da Boavista","previousNames":null,"type":"STREET","direction":"ANTI_CLOCKWISE","placeName":"Porto","countryId":"portugal","latitude":41.170472,"longitude":-8.67325,"length":7.406,"turns":19,"totalRacesHeld":2},{"id":"reims","name":"Reims-Gueux","fullName":"Reims-Gueux","previousNames":null,"type":"ROAD","direction":"CLOCKWISE","placeName":"Reims","countryId":"france","latitude":49.254075,"longitude":3.930561,"length":8.302,"turns":7,"totalRacesHeld":11},{"id":"riverside","name":"Riverside","fullName":"Riverside International Raceway","previousNames":null,"type":"RACE","direction":"CLOCKWISE","placeName":"Riverside","countryId":"united-states-of-america","latitude":33.937,"longitude":-117.272556,"length":5.271,"turns":9,"totalRacesHeld":1},{"id":"rouen","name":"Rouen-Les-Essarts","fullName":"Rouen-Les-Essarts","previousNames":null,"type":"ROAD","direction":"CLOCKWISE","placeName":"Rouen","countryId":"france","latitude":49.330639,"longitude":1.004583,"length":6.542,"turns":12,"totalRacesHeld":5},{"id":"sebring","name":"Sebring","fullName":"Sebring International Raceway","previousNames":null,"type":"ROAD","direction":"CLOCKWISE","placeName":"Sebring","countryId":"united-states-of-america","latitude":27.454741,"longitude":-81.348267,"length":8.360,"turns":17,"totalRacesHeld":1},{"id":"sepang","name":"Sepang","fullName":"Sepang International Circuit","previousNames":null,"type":"RACE","direction":"CLOCKWISE","placeName":"Sepang","countryId":"malaysia","latitude":2.760556,"longitude":101.7375,"length":5.543,"turns":15,"totalRacesHeld":19},{"id":"shanghai","name":"Shanghai","fullName":"Shanghai International Circuit","previousNames":null,"type":"RACE","direction":"CLOCKWISE","placeName":"Shanghai","countryId":"china","latitude":31.338889,"longitude":121.219722,"length":5.451,"turns":16,"totalRacesHeld":18},{"id":"silverstone","name":"Silverstone","fullName":"Silverstone Circuit","previousNames":null,"type":"RACE","direction":"CLOCKWISE","placeName":"Silverstone","countryId":"united-kingdom","latitude":52.078611,"longitude":-1.016944,"length":5.891,"turns":18,"totalRacesHeld":60},{"id":"sochi","name":"Sochi","fullName":"Sochi Autodrom","previousNames":["Sochi International Street Circuit","Sochi Olympic Park Circuit"],"type":"ROAD","direction":"CLOCKWISE","placeName":"Sochi","countryId":"russia","latitude":43.410278,"longitude":39.968271,"length":5.848,"turns":18,"totalRacesHeld":8},{"id":"spa-francorchamps","name":"Spa-Francorchamps","fullName":"Circuit de Spa-Francorchamps","previousNames":null,"type":"RACE","direction":"CLOCKWISE","placeName":"Spa","countryId":"belgium","latitude":50.437222,"longitude":5.971389,"length":7.004,"turns":19,"totalRacesHeld":58},{"id":"spielberg","name":"Red Bull Ring","fullName":"Red Bull Ring","previousNames":["Österreichring","A1-Ring"],"type":"RACE","direction":"CLOCKWISE","placeName":"Spielberg","countryId":"austria","latitude":47.219722,"longitude":14.764722,"length":4.326,"turns":10,"totalRacesHeld":39},{"id":"suzuka","name":"Suzuka","fullName":"Suzuka Circuit","previousNames":null,"type":"RACE","direction":"CLOCKWISE","placeName":"Suzuka","countryId":"japan","latitude":34.843056,"longitude":136.540556,"length":5.807,"turns":18,"totalRacesHeld":35},{"id":"valencia","name":"Valencia","fullName":"Valencia Street Circuit","previousNames":null,"type":"STREET","direction":"CLOCKWISE","placeName":"Valencia","countryId":"spain","latitude":39.458778,"longitude":-0.325556,"length":5.419,"turns":25,"totalRacesHeld":5},{"id":"watkins-glen","name":"Watkins Glen","fullName":"Watkins Glen International","previousNames":null,"type":"RACE","direction":"CLOCKWISE","placeName":"Watkins Glen","countryId":"united-states-of-america","latitude":42.336944,"longitude":-76.927222,"length":5.435,"turns":11,"totalRacesHeld":20},{"id":"yas-marina","name":"Yas Marina","fullName":"Yas Marina Circuit","previousNames":null,"type":"RACE","direction":"ANTI_CLOCKWISE","placeName":"Abu Dhabi","countryId":"united-arab-emirates","latitude":24.467222,"longitude":54.603056,"length":5.281,"turns":16,"totalRacesHeld":17},{"id":"yeongam","name":"Korea","fullName":"Korea International Circuit","previousNames":null,"type":"RACE","direction":"ANTI_CLOCKWISE","placeName":"Yeongam","countryId":"south-korea","latitude":34.733333,"longitude":126.416667,"length":5.615,"turns":18,"totalRacesHeld":4},{"id":"zandvoort","name":"Zandvoort","fullName":"Circuit Park Zandvoort","previousNames":null,"type":"RACE","direction":"CLOCKWISE","placeName":"Zandvoort","countryId":"netherlands","latitude":52.388819,"longitude":4.540922,"length":4.259,"turns":14,"totalRacesHeld":35},{"id":"zeltweg","name":"Zeltweg","fullName":"Zeltweg","previousNames":null,"type":"ROAD","direction":"CLOCKWISE","placeName":"Zeltweg","countryId":"austria","latitude":47.202222,"longitude":14.742222,"length":3.186,"turns":4,"totalRacesHeld":1},{"id":"zolder","name":"Zolder","fullName":"Circuit Zolder","previousNames":null,"type":"RACE","direction":"CLOCKWISE","placeName":"Heusden-Zolder","countryId":"belgium","latitude":50.988889,"longitude":5.255556,"length":4.262,"turns":15,"totalRacesHeld":10}]